NMEA-0183,EngineSpeed(rpm),Deviation(cm),FuelGauge(%)
"$GNGST,032429.50,1.17,1.77,1.28,176.4311,1.769,1.281,3.512*4E$AGRICA,55,GPS,FINE,2373,12287500,0,0,18,30;GNSS,232,25,6,29,3,24,29,1,4,11,17,0,-699.4489,-3582.2969,-68.0923,0.0109,0.0078,0.0217,341.0649,1.9498,0.0000,0.004,-0.001,0.003,-0.002,0.121,0.153,0.127,37.27033920496,126.99072244823,31.9549,-3057721.4596,4059100.7672,3841344.8264,1.7693,1.2806,3.5117,2.2180,2.7558,2.1420,37.27664835970,127.03111078942,122.2941,0.00000000000,0.00000000000,0.0000,12287500,0.000,104.081985,23.290197,0.000000,0.000000,0,0,0,0*73dafe42$GNGGA,032429.60,3716.22035218,N,12659.44334676,E,1,28,0.6,31.9542,M,23.2902,M,,*42$GNGST,032429.60,1.17,1.77,1.28,176.3936,1.769,1.281,3.512*45$AGRICA,55,GPS,FINE,2373,12287600,0,0,18,30;GNSS,232,25,6,29,3,24,29,1,4,11,17,0,-699.4491,-3582.2971,-68.0929,0.0109,0.0078,0.0217,341.2599,1.8577,0.0000,0.008,0.001,0.008,-0.002,0.121,0.153,0.127,37.27033920305,126.99072244604,31.9542,-3057721.4593,4059100.7670,3841344.8259,1.7694,1.2806,3.5116,2.2183,2.7554,2.1422,37.27664835970,127.03111078942,122.2941,0.00000000000,0.00000000000,0.0000,12287600,0.000,83.772224,23.290197,0.000000,0.000000,0,0,0,0*4553eb69",2500,9.58,100
"$GNGGA,032429.70,3716.22035215,N,12659.44334696,E,1,28,0.6,31.9537,M,23.2902,M,,*42$GNGST,032429.70,1.17,1.77,1.28,176.3770,1.770,1.281,3.512*40$AGRICA,55,GPS,FINE,2373,12287700,0,0,18,30;GNSS,232,25,6,29,3,24,29,1,4,11,17,0,-699.4492,-3582.2969,-68.0934,0.0109,0.0078,0.0217,341.4536,1.9485,0.0000,0.005,0.004,0.002,0.000,0.121,0.153,0.127,37.27033920248,126.99072244929,31.9537,-3057721.4593,4059100.7666,3841344.8255,1.7698,1.2806,3.5116,2.2185,2.7553,2.1424,37.27664835970,127.03111078942,122.2941,0.00000000000,0.00000000000,0.0000,12287700,0.000,29.356562,23.290197,0.000000,0.000000,0,0,0,0*921f8d6e",2502,9.23,99.98
"$GNGGA,032429.80,3716.22035229,N,12659.44334679,E,1,28,0.6,31.9534,M,23.2902,M,,*40$GNGST,032429.80,1.17,1.77,1.28,176.3758,1.769,1.280,3.510*4E$AGRICA,55,GPS,FINE,2373,12287800,0,0,18,30;GNSS,232,25,6,29,3,24,29,1,4,11,17,0,-699.4489,-3582.2971,-68.0937,0.0109,0.0078,0.0217,341.3477,2.0079,0.0000,0.004,0.002,0.000,0.003,0.121,0.153,0.127,37.27033920479,126.99072244650,31.9534,-3057721.4588,4059100.7664,3841344.8255,1.7685,1.2801,3.5104,2.2178,2.7537,2.1419,37.27664835970,127.03111078942,122.2941,0.00000000000,0.00000000000,0.0000,12287800,0.000,14.205418,23.290197,0.000000,0.000000,0,0,0,0*8d45e97b$GNGGA,032429.90,3716.22035231,N,12659.44334651,E,1,28,0.6,31.9534,M,23.2902,M,,*42",2510,8.94,99.95
"$GNGST,032429.90,1.17,1.77,1.28,176.3581,1.768,1.280,3.511*49$AGRICA,55,GPS,FINE,2373,12287900,0,0,18,30;GNSS,232,25,6,29,3,24,29,1,4,11,17,0,-699.4489,-3582.2976,-68.0938,0.0109,0.0078,0.0217,341.0976,2.1155,0.0000,0.005,0.003,0.005,0.000,0.121,0.153,0.127,37.27033920510,126.99072244188,31.9534,-3057721.4585,4059100.7666,3841344.8255,1.7684,1.2800,3.5106,2.2180,2.7537,2.1419,37.27664835970,127.03111078942,122.2941,0.00000000000,0.00000000000,0.0000,12287900,0.000,59.115921,23.290197,0.000000,0.000000,0,0,0,0*6be42527$GNGGA,032430.00,3716.22035237,N,12659.44334651,E,1,28,0.6,31.9530,M,23.2902,M,,*41",2511,8.67,99.93
"$GNGST,032430.00,1.17,1.77,1.28,176.3478,1.769,1.280,3.510*4F$AGRICA,55,GPS,FINE,2373,12288000,0,0,18,40;GNSS,232,25,6,29,3,24,30,1,4,11,17,0,-699.4487,-3582.2976,-68.0941,0.0109,0.0078,0.0217,341.2421,2.1193,0.0000,0.001,0.000,0.001,-0.001,0.121,0.153,0.127,37.27033920620,126.99072244187,31.9530,-3057721.4582,4059100.7663,3841344.8254,1.7689,1.2800,3.5105,2.2179,2.7538,2.1421,37.27664835970,127.03111078942,122.2941,0.00000000000,0.00000000000,0.0000,12288000,0.000,63.567329,23.290197,0.000000,0.000000,0,0,0,0*cae1ca22$GNGGA,032430.10,3716.22035230,N,12659.44334625,E,1,28,0.6,31.9525,M,23.2902,M,,*40$GNGST,032430.10,1.17,1.77,1.28,176.3422,1.769,1.280,3.510*41$AGRICA,55,GPS,FINE,2373,12288100,0,0,18,31;GNSS,232,25,6,29,3,24,30,1,4,11,17,0,-699.4489,-3582.2979,-68.0946,0.0109,0.0078,0.0217,341.2273,2.2062,0.0000,0.006,-0.002,-0.001,-0.005,0.121,0.153,0.127,37.27033920506,126.99072243752,31.9525,-3057721.4578,4059100.7663,3841344.8250,1.7693,1.2804,3.5103,2.2179,2.7538,2.1423,37.27664835970,127.03111078942,122.2941,0.00000000000,0.00000000000,0.0000,12288100,0.000,214.405075,23.290197,0.000000,0.000000,0,0,0,0*562e43f7",2520,8.34,99.9
"$GNGGA,032430.20,3716.22035210,N,12659.44334585,E,1,28,0.6,31.9516,M,23.2902,M,,*48$GNGST,032430.20,1.17,1.77,1.28,176.3160,1.770,1.280,3.511*48$AGRICA,55,GPS,FINE,2373,12288200,0,0,18,31;GNSS,232,25,6,29,3,24,30,1,4,11,17,0,-699.4492,-3582.2986,-68.0955,0.0109,0.0078,0.0217,341.2114,2.5029,0.0000,0.005,0.000,0.002,-0.004,0.121,0.153,0.127,37.27033920174,126.99072243085,31.9516,-3057721.4570,4059100.7663,3841344.8242,1.7696,1.2805,3.5115,2.2190,2.7543,2.1428,37.27664835970,127.03111078942,122.2941,0.00000000000,0.00000000000,0.0000,12288200,0.000,85.802773,23.290197,0.000000,0.000000,0,0,0,0*33165552$GNGGA,032430.30,3716.22035203,N,12659.44334569,E,1,28,0.6,31.9509,M,23.2902,M,,*47$GNGST,032430.30,1.17,1.77,1.28,176.2798,1.770,1.280,3.512*4A$AGRICA,55,GPS,FINE,2373,12288300,0,0,18,31;GNSS,232,25,6,29,3,24,30,1,4,11,17,0,-699.4493,-3582.2988,-68.0962,0.0109,0.0078,0.0217,341.2509,2.2557,0.0000,0.005,-0.001,0.001,-0.004,0.121,0.153,0.127,37.27033920047,126.99072242820,31.9509,-3057721.4565,4059100.7660,3841344.8236,1.7699,1.2803,3.5116,2.2192,2.7543,2.1430,37.27664835970,127.03111078942,122.2941,0.00000000000,0.00000000000,0.0000,12288300,0.000,137.447830,23.290197,0.000000,0.000000,0,0,0,0*7449d90c",2529,7.85,99.88
"$GNGGA,032430.40,3716.22035190,N,12659.44334544,E,1,28,0.6,31.9502,M,23.2902,M,,*4D$GNGST,032430.40,1.17,1.77,1.28,176.2886,1.770,1.281,3.512*4C$AGRICA,55,GPS,FINE,2373,12288400,0,0,18,30;GNSS,232,25,6,29,3,24,30,1,4,11,17,0,-699.4496,-3582.2991,-68.0970,0.0109,0.0078,0.0217,341.2306,2.6022,0.0000,0.006,0.000,0.001,-0.005,0.121,0.153,0.127,37.27033919834,126.99072242405,31.9502,-3057721.4560,4059100.7659,3841344.8230,1.7699,1.2805,3.5119,2.2193,2.7545,2.1431,37.27664835970,127.03111078942,122.2941,0.00000000000,0.00000000000,0.0000,12288400,0.000,88.607712,23.290197,0.000000,0.000000,0,0,0,0*16c8fef0$GNGGA,032430.50,3716.22035181,N,12659.44334523,E,1,28,0.6,31.9493,M,23.2902,M,,*44$GNGST,032430.50,1.17,1.77,1.28,176.2696,1.770,1.281,3.512*42$AGRICA,55,GPS,FINE,2373,12288500,0,0,18,30;GNSS,232,25,6,29,3,24,30,1,4,11,17,0,-699.4498,-3582.2993,-68.0978,0.0109,0.0078,0.0217,341.1208,2.3169,0.0000,0.003,-0.001,0.003,-0.002,0.121,0.153,0.127,37.27033919685,126.99072242042,31.9493,-3057721.4554,4059100.7656,3841344.8224,1.7701,1.2807,3.5120,2.2196,2.7544,2.1434,37.27664835970,127.03111078942,122.2941,0.00000000000,0.00000000000,0.0000,12288500,0.000,110.344307,23.290197,0.000000,0.000000,0,0,0,0*1606cc06",2533,7.4,99.85
"$GNGGA,032430.60,3716.22035167,N,12659.44334511,E,1,28,0.6,31.9489,M,23.2902,M,,*45$GNGST,032430.60,1.17,1.77,1.28,176.2662,1.770,1.281,3.513*4B$AGRICA,55,GPS,FINE,2373,12288600,0,0,18,30;GNSS,232,25,6,29,3,24,30,1,4,11,17,0,-699.4500,-3582.2996,-68.0982,0.0109,0.0078,0.0217,341.2358,2.0186,0.0000,0.006,0.000,0.005,0.003,0.121,0.153,0.127,37.27033919456,126.99072241845,31.9489,-3057721.4551,4059100.7656,3841344.8219,1.7704,1.2806,3.5125,2.2199,2.7550,2.1434,37.27664835970,127.03111078942,122.2941,0.00000000000,0.00000000000,0.0000,12288600,0.000,84.812355,23.290197,0.000000,0.000000,0,0,0,0*df6fdaf9$GNGGA,032430.70,3716.22035160,N,12659.44334517,E,1,28,0.6,31.9490,M,23.2902,M,,*4D",2540,7.07,99.83
"$GNGST,032430.70,1.17,1.77,1.28,176.2621,1.770,1.281,3.512*4C$AGRICA,55,GPS,FINE,2373,12288700,0,0,18,30;GNSS,232,25,6,29,3,24,30,1,4,11,17,0,-699.4501,-3582.2996,-68.0981,0.0109,0.0078,0.0217,341.3195,2.0758,0.0000,0.008,-0.003,0.002,0.008,0.121,0.153,0.127,37.27033919342,126.99072241952,31.9490,-3057721.4553,4059100.7657,3841344.8219,1.7702,1.2809,3.5121,2.2197,2.7546,2.1434,37.27664835970,127.03111078942,122.2941,0.00000000000,0.00000000000,0.0000,12288700,0.000,151.527985,23.290197,0.000000,0.000000,0,0,0,0*5ae9b08c$GNGGA,032430.80,3716.22035136,N,12659.44334498,E,1,28,0.6,31.9496,M,23.2902,M,,*41$GNGST,032430.80,1.17,1.77,1.28,176.2344,1.770,1.281,3.512*45$AGRICA,55,GPS,FINE,2373,12288800,0,0,18,30;GNSS,232,25,6,29,3,24,30,1,4,11,17,0,-699.4506,-3582.2998,-68.0975,0.0109,0.0078,0.0217,341.2966,1.9938,0.0000,0.005,-0.004,0.001,0.003,0.121,0.153,0.127,37.27033918927,126.99072241631,31.9496,-3057721.4555,4059100.7665,3841344.8219,1.7703,1.2808,3.5120,2.2198,2.7542,2.1436,37.27664835970,127.03111078942,122.2941,0.00000000000,0.00000000000,0.0000,12288800,0.000,160.642044,23.290197,0.000000,0.000000,0,0,0,0*be8ff1cd",2548,6.86,99.81
"$GNGGA,032430.90,3716.22035105,N,12659.44334479,E,1,28,0.6,31.9496,M,23.2902,M,,*4F$GNGST,032430.90,1.17,1.77,1.28,176.2122,1.771,1.281,3.512*47$AGRICA,55,GPS,FINE,2373,12288900,0,0,18,30;GNSS,232,25,6,29,3,24,30,1,4,11,17,0,-699.4512,-3582.3000,-68.0975,0.0109,0.0078,0.0217,341.0409,2.0640,0.0000,0.009,-0.003,0.002,-0.008,0.121,0.153,0.127,37.27033918420,126.99072241310,31.9496,-3057721.4555,4059100.7669,3841344.8214,1.7705,1.2807,3.5121,2.2200,2.7542,2.1439,37.27664835970,127.03111078942,122.2941,0.00000000000,0.00000000000,0.0000,12288900,0.000,137.634155,23.290197,0.000000,0.000000,0,0,0,0*b2204469$GNGGA,032431.00,3716.22035082,N,12659.44334467,E,1,28,0.6,31.9486,M,23.2902,M,,*47",2557,6.5,99.78
"$GNGST,032431.00,1.17,1.77,1.28,176.1949,1.771,1.281,3.513*48$AGRICA,55,GPS,FINE,2373,12289000,0,0,18,39;GNSS,232,25,6,29,3,24,31,1,4,11,17,0,-699.4516,-3582.3003,-68.0985,0.0109,0.0078,0.0217,341.3228,2.1164,0.0000,0.009,0.002,-0.002,-0.008,0.121,0.153,0.127,37.27033918039,126.99072241109,31.9486,-3057721.4550,4059100.7666,3841344.8205,1.7709,1.2810,3.5131,2.2208,2.7548,2.1442,37.27664835970,127.03111078942,122.2941,0.00000000000,0.00000000000,0.0000,12289000,0.000,320.095093,23.290197,0.000000,0.000000,0,0,0,0*31769c29$GNGGA,032431.10,3716.22035084,N,12659.44334429,E,1,28,0.6,31.9475,M,23.2902,M,,*46$GNGST,032431.10,1.17,1.77,1.28,176.1982,1.772,1.281,3.514*4A$AGRICA,55,GPS,FINE,2373,12289100,0,0,18,31;GNSS,232,25,6,29,3,24,31,1,4,11,17,0,-699.4515,-3582.3008,-68.0996,0.0109,0.0078,0.0217,341.1554,2.2997,0.0000,0.008,0.001,0.001,-0.008,0.121,0.153,0.127,37.27033918073,126.99072240475,31.9475,-3057721.4540,4059100.7662,3841344.8198,1.7716,1.2812,3.5138,2.2214,2.7555,2.1445,37.27664835970,127.03111078942,122.2941,0.00000000000,0.00000000000,0.0000,12289100,0.000,40.091141,23.290197,0.000000,0.000000,0,0,0,0*5eb931f5",2557,6.03,99.76
"$GNGGA,032431.20,3716.22035083,N,12659.44334409,E,1,28,0.6,31.9465,M,23.2902,M,,*41$GNGST,032431.20,1.17,1.77,1.28,176.2186,1.772,1.281,3.514*46$AGRICA,55,GPS,FINE,2373,12289200,0,0,18,31;GNSS,232,25,6,29,3,24,31,1,4,11,17,0,-699.4516,-3582.3010,-68.1006,0.0109,0.0078,0.0217,341.1559,2.1858,0.0000,0.011,0.004,0.000,-0.010,0.121,0.153,0.127,37.27033918045,126.99072240144,31.9465,-3057721.4533,4059100.7657,3841344.8192,1.7718,1.2814,3.5141,2.2214,2.7560,2.1447,37.27664835970,127.03111078942,122.2941,0.00000000000,0.00000000000,0.0000,12289200,0.000,2.254385,23.290197,0.000000,0.000000,0,0,0,0*9ddc1a23$GNGGA,032431.30,3716.22035097,N,12659.44334383,E,1,28,0.6,31.9453,M,23.2902,M,,*45$GNGST,032431.30,1.17,1.77,1.28,176.2232,1.772,1.281,3.514*4B$AGRICA,51,GPS,FINE,2373,12289300,0,0,18,31;GNSS,232,25,6,29,3,24,31,1,4,11,17,0,-699.4513,-3582.3015,-68.1018,0.0109,0.0078,0.0217,341.2772,1.8434,0.0000,0.009,0.001,0.000,-0.009,0.121,0.153,0.127,37.27033918289,126.99072239715,31.9453,-3057721.4524,4059100.7651,3841344.8187,1.7718,1.2815,3.5140,2.2213,2.7560,2.1447,37.27664835970,127.03111078942,122.2941,0.00000000000,0.00000000000,0.0000,12289300,0.000,356.857971,23.290197,0.000000,0.000000,0,0,0,0*3486f22d",2566,5.56,99.73
"$GNGGA,032431.40,3716.22035093,N,12659.44334356,E,1,28,0.6,31.9443,M,23.2902,M,,*4F$GNGST,032431.40,1.17,1.77,1.28,176.2008,1.771,1.281,3.514*44$AGRICA,51,GPS,FINE,2373,12289400,0,0,18,30;GNSS,232,25,6,29,3,24,31,1,4,11,17,0,-699.4514,-3582.3018,-68.1029,0.0109,0.0078,0.0217,341.2967,2.1208,0.0000,0.006,-0.001,0.000,-0.006,0.121,0.153,0.127,37.27033918224,126.99072239268,31.9443,-3057721.4516,4059100.7647,3841344.8180,1.7715,1.2814,3.5139,2.2214,2.7556,2.1448,37.27664835970,127.03111078942,122.2941,0.00000000000,0.00000000000,0.0000,12289400,0.000,176.108643,23.290197,0.000000,0.000000,0,0,0,0*e60d57fa$GNGGA,032431.50,3716.22035076,N,12659.44334331,E,1,28,0.6,31.9436,M,23.2902,M,,*46",2574,5.25,99.71
"$GNGST,032431.50,1.17,1.77,1.28,176.1957,1.771,1.282,3.514*46$AGRICA,51,GPS,FINE,2373,12289500,0,0,18,30;GNSS,232,25,6,29,3,24,31,1,4,11,17,0,-699.4517,-3582.3022,-68.1035,0.0109,0.0078,0.0217,341.0785,2.2486,0.0000,0.006,0.000,0.006,0.001,0.121,0.153,0.127,37.27033917935,126.99072238846,31.9436,-3057721.4511,4059100.7646,3841344.8173,1.7711,1.2815,3.5140,2.2215,2.7553,2.1449,37.27664835970,127.03111078942,122.2941,0.00000000000,0.00000000000,0.0000,12289500,0.000,89.416046,23.290197,0.000000,0.000000,0,0,0,0*bed31613$GNGGA,032431.60,3716.22035066,N,12659.44334342,E,1,28,0.6,31.9436,M,23.2902,M,,*40$GNGST,032431.60,1.17,1.77,1.28,176.1951,1.771,1.282,3.514*43$AGRICA,51,GPS,FINE,2373,12289600,0,0,18,30;GNSS,232,25,6,29,3,24,31,1,4,11,17,0,-699.4519,-3582.3020,-68.1035,0.0109,0.0078,0.0217,341.2816,2.3322,0.0000,0.005,-0.001,0.002,0.005,0.121,0.153,0.127,37.27033917770,126.99072239028,31.9436,-3057721.4513,4059100.7646,3841344.8172,1.7711,1.2815,3.5143,2.2216,2.7555,2.1450,37.27664835970,127.03111078942,122.2941,0.00000000000,0.00000000000,0.0000,12289600,0.000,125.815788,23.290197,0.000000,0.000000,0,0,0,0*986a50a5",2577,4.76,99.68
"$GNGGA,032431.70,3716.22035049,N,12659.44334330,E,1,28,0.6,31.9439,M,23.2902,M,,*46$GNGST,032431.70,1.17,1.77,1.28,176.2235,1.771,1.282,3.515*49$AGRICA,51,GPS,FINE,2373,12289700,0,0,18,30;GNSS,232,25,6,29,3,24,31,1,4,11,17,0,-699.4522,-3582.3022,-68.1032,0.0109,0.0078,0.0217,341.0889,2.2000,0.0000,0.005,-0.004,0.003,-0.002,0.121,0.153,0.127,37.27033917480,126.99072238829,31.9439,-3057721.4514,4059100.7651,3841344.8172,1.7712,1.2816,3.5152,2.2220,2.7563,2.1451,37.27664835970,127.03111078942,122.2941,0.00000000000,0.00000000000,0.0000,12289700,0.000,144.722488,23.290197,0.000000,0.000000,0,0,0,0*fd106b20$GNGGA,032431.80,3716.22035018,N,12659.44334323,E,1,28,0.6,31.9437,M,23.2902,M,,*41$GNGST,032431.80,1.17,1.77,1.28,176.2176,1.771,1.281,3.516*42$AGRICA,51,GPS,FINE,2373,12289800,0,0,18,30;GNSS,232,25,6,29,3,24,31,1,4,11,17,0,-699.4528,-3582.3022,-68.1035,0.0109,0.0078,0.0217,341.1628,2.1608,0.0000,0.008,-0.003,0.005,-0.006,0.121,0.153,0.127,37.27033916964,126.99072238714,31.9437,-3057721.4514,4059100.7653,3841344.8165,1.7712,1.2815,3.5156,2.2224,2.7564,2.1452,37.27664835970,127.03111078942,122.2941,0.00000000000,0.00000000000,0.0000,12289800,0.000,118.528503,23.290197,0.000000,0.000000,0,0,0,0*93de3a4d",2583,4.33,99.66
"$GNGGA,032431.90,3716.22034993,N,12659.44334332,E,1,28,0.6,31.9430,M,23.2902,M,,*4C$GNGST,032431.90,1.17,1.77,1.28,176.2349,1.771,1.282,3.517*4F$AGRICA,51,GPS,FINE,2373,12289900,0,0,18,30;GNSS,232,25,6,29,3,24,31,1,4,11,17,0,-699.4532,-3582.3022,-68.1041,0.0109,0.0078,0.0217,341.1950,2.1705,0.0000,0.003,-0.001,0.003,-0.001,0.121,0.153,0.127,37.27033916542,126.99072238862,31.9430,-3057721.4513,4059100.7650,3841344.8157,1.7708,1.2817,3.5173,2.2232,2.7576,2.1455,37.27664835970,127.03111078942,122.2941,0.00000000000,0.00000000000,0.0000,12289900,0.000,107.827057,23.290197,0.000000,0.000000,0,0,0,0*ad02a33d$GNGGA,032432.00,3716.22034977,N,12659.44334326,E,1,28,0.6,31.9428,M,23.2902,M,,*40$GNGST,032432.00,1.17,1.77,1.28,176.2229,1.771,1.282,3.518*4D$AGRICA,51,GPS,FINE,2373,12290000,0,0,18,39;GNSS,232,25,6,29,3,24,32,1,4,11,17,0,-699.4536,-3582.3022,-68.1044,0.0109,0.0078,0.0217,341.1524,2.4140,0.0000,0.004,0.001,0.002,-0.003,0.121,0.153,0.127,37.27033916279,126.99072238761,31.9428,-3057721.4513,4059100.7650,3841344.8154,1.7707,1.2818,3.5178,2.2235,2.7577,2.1457,37.27664835970,127.03111078942,122.2941,0.00000000000,0.00000000000,0.0000,12290000,0.000,65.633751,23.290197,0.000000,0.000000,0,0,0,0*cf119b7e",2591,4.1,99.64
"$GNGGA,032432.10,3716.22034969,N,12659.44334312,E,1,28,0.6,31.9424,M,23.2902,M,,*45$GNGST,032432.10,1.17,1.77,1.28,176.3033,1.770,1.282,3.517*4A$AGRICA,51,GPS,FINE,2373,12290100,0,0,18,31;GNSS,232,25,6,29,3,24,32,1,4,11,17,0,-699.4537,-3582.3025,-68.1048,0.0109,0.0078,0.0217,341.1507,1.9560,0.0000,0.006,-0.003,0.003,-0.004,0.121,0.153,0.127,37.27033916148,126.99072238536,31.9424,-3057721.4510,4059100.7650,3841344.8150,1.7696,1.2820,3.5172,2.2226,2.7576,2.1453,37.27664835970,127.03111078942,122.2941,0.00000000000,0.00000000000,0.0000,12290100,0.000,137.769974,23.290197,0.000000,0.000000,0,0,0,0*a884e7c5$GNGGA,032432.20,3716.22034941,N,12659.44334304,E,1,28,0.6,31.9420,M,23.2902,M,,*4F$GNGST,032432.20,1.17,1.77,1.28,176.3199,1.769,1.282,3.517*40$AGRICA,51,GPS,FINE,2373,12290200,0,0,18,31;GNSS,232,25,6,29,3,24,32,1,4,11,17,0,-699.4542,-3582.3027,-68.1051,0.0109,0.0078,0.0217,341.1003,2.2262,0.0000,0.001,0.001,0.000,0.001,0.121,0.153,0.127,37.27033915685,126.99072238407,31.9420,-3057721.4509,4059100.7651,3841344.8144,1.7695,1.2822,3.5169,2.2221,2.7576,2.1451,37.27664835970,127.03111078942,122.2941,0.00000000000,0.00000000000,0.0000,12290200,0.000,21.922514,23.290197,0.000000,0.000000,0,0,0,0*6a3e6604",2591,3.9,99.61
"$GNGGA,032432.30,3716.22034933,N,12659.44334282,E,1,28,0.6,31.9421,M,23.2902,M,,*45$GNGST,032432.30,1.17,1.77,1.28,176.3234,1.769,1.282,3.517*45$AGRICA,51,GPS,FINE,2373,12290300,0,0,18,31;GNSS,232,25,6,29,3,24,32,1,4,11,17,0,-699.4543,-3582.3030,-68.1050,0.0109,0.0078,0.0217,341.2402,1.4784,0.0000,0.005,-0.001,-0.002,0.004,0.121,0.153,0.127,37.27033915542,126.99072238029,31.9421,-3057721.4507,4059100.7654,3841344.8143,1.7695,1.2822,3.5166,2.2221,2.7574,2.1449,37.27664835970,127.03111078942,122.2941,0.00000000000,0.00000000000,0.0000,12290300,0.000,231.112061,23.290197,0.000000,0.000000,0,0,0,0*7ed194dc$GNGGA,032432.40,3716.22034912,N,12659.44334246,E,1,28,0.6,31.9424,M,23.2902,M,,*4C$GNGST,032432.40,1.17,1.77,1.28,176.3470,1.769,1.282,3.516*45$AGRICA,51,GPS,FINE,2373,12290400,0,0,18,31;GNSS,232,25,6,29,3,24,32,1,4,11,17,0,-699.4547,-3582.3035,-68.1047,0.0109,0.0078,0.0217,341.0460,1.4931,0.0000,0.006,-0.002,-0.005,-0.003,0.121,0.153,0.127,37.27033915208,126.99072237436,31.9424,-3057721.4506,4059100.7661,3841344.8142,1.7691,1.2822,3.5162,2.2215,2.7572,2.1447,37.27664835970,127.03111078942,122.2941,0.00000000000,0.00000000000,0.0000,12290400,0.000,246.925613,23.290197,0.000000,0.000000,0,0,0,0*ea0b1f41",2599,3.64,99.59
"$GNGGA,032432.50,3716.22034890,N,12659.44334192,E,1,28,0.6,31.9420,M,23.2902,M,,*48$GNGST,032432.50,1.17,1.77,1.28,176.3709,1.769,1.282,3.516*49$AGRICA,51,GPS,FINE,2373,12290500,0,0,18,30;GNSS,232,25,6,29,3,24,32,1,4,11,17,0,-699.4551,-3582.3042,-68.1051,0.0109,0.0078,0.0217,341.0777,1.5881,0.0000,0.006,-0.001,-0.004,-0.005,0.121,0.153,0.127,37.27033914835,126.99072236526,31.9420,-3057721.4499,4059100.7665,3841344.8136,1.7688,1.2822,3.5159,2.2211,2.7572,2.1444,37.27664835970,127.03111078942,122.2941,0.00000000000,0.00000000000,0.0000,12290500,0.000,256.072571,23.290197,0.000000,0.000000,0,0,0,0*946924e3$GNGGA,032432.60,3716.22034873,N,12659.44334140,E,1,28,0.6,31.9415,M,23.2902,M,,*4F$GNGST,032432.60,1.17,1.77,1.28,176.3725,1.768,1.282,3.516*45$AGRICA,51,GPS,FINE,2373,12290600,0,0,18,30;GNSS,232,25,6,29,3,24,32,1,4,11,17,0,-699.4554,-3582.3049,-68.1056,0.0109,0.0078,0.0217,341.3119,1.8043,0.0000,0.005,0.002,-0.003,-0.003,0.121,0.153,0.127,37.27033914544,126.99072235671,31.9415,-3057721.4492,4059100.7668,3841344.8131,1.7684,1.2821,3.5158,2.2209,2.7571,2.1443,37.27664835970,127.03111078942,122.2941,0.00000000000,0.00000000000,0.0000,12290600,0.000,301.592773,23.290197,0.000000,0.000000,0,0,0,0*60cc54c7",2606,3.18,99.56
"$GNGGA,032432.70,3716.22034870,N,12659.44334096,E,1,28,0.6,31.9412,M,23.2902,M,,*40$GNGST,032432.70,1.17,1.77,1.28,176.4192,1.768,1.282,3.515*4A$AGRICA,51,GPS,FINE,2373,12290700,0,0,18,30;GNSS,232,25,6,29,3,24,32,1,4,11,17,0,-699.4555,-3582.3057,-68.1059,0.0109,0.0078,0.0217,341.1833,2.2355,0.0000,0.004,-0.004,0.002,0.000,0.121,0.153,0.127,37.27033914495,126.99072234938,31.9412,-3057721.4485,4059100.7671,3841344.8129,1.7679,1.2821,3.5152,2.2201,2.7569,2.1439,37.27664835970,127.03111078942,122.2941,0.00000000000,0.00000000000,0.0000,12290700,0.000,150.706100,23.290197,0.000000,0.000000,0,0,0,0*1984dc11$GNGGA,032432.80,3716.22034836,N,12659.44334087,E,1,28,0.6,31.9413,M,23.2902,M,,*4C$GNGST,032432.80,1.17,1.77,1.28,176.3969,1.768,1.282,3.515*4E$AGRICA,51,GPS,FINE,2373,12290800,0,0,18,30;GNSS,232,25,6,29,3,24,32,1,4,11,17,0,-699.4561,-3582.3059,-68.1058,0.0109,0.0078,0.0217,341.3517,1.9675,0.0000,0.005,-0.005,0.001,-0.001,0.121,0.153,0.127,37.27033913941,126.99072234791,31.9413,-3057721.4487,4059100.7675,3841344.8124,1.7681,1.2817,3.5147,2.2197,2.7568,2.1435,37.27664835970,127.03111078942,122.2941,0.00000000000,0.00000000000,0.0000,12290800,0.000,165.373840,23.290197,0.000000,0.000000,0,0,0,0*c331714f",2607,2.81,99.54
"$GNGGA,032432.90,3716.22034796,N,12659.44334074,E,1,28,0.6,31.9412,M,23.2902,M,,*45$GNGST,032432.90,1.17,1.77,1.28,176.4041,1.768,1.282,3.514*4A$AGRICA,51,GPS,FINE,2373,12290900,0,0,18,30;GNSS,232,25,6,29,3,24,32,1,4,11,17,0,-699.4569,-3582.3059,-68.1059,0.0109,0.0078,0.0217,341.2151,1.5702,0.0000,0.004,-0.003,-0.001,0.002,0.121,0.153,0.127,37.27033913269,126.99072234569,31.9412,-3057721.4488,4059100.7679,3841344.8118,1.7678,1.2816,3.5142,2.2195,2.7563,2.1434,37.27664835970,127.03111078942,122.2941,0.00000000000,0.00000000000,0.0000,12290900,0.000,193.248886,23.290197,0.000000,0.000000,0,0,0,0*f76b39d9$GNGGA,032433.00,3716.22034766,N,12659.44334048,E,1,28,0.6,31.9413,M,23.2902,M,,*4C$GNGST,032433.00,1.17,1.77,1.28,176.4249,1.768,1.282,3.514*48$AGRICA,51,GPS,FINE,2373,12291000,0,0,18,39;GNSS,232,25,6,29,3,24,33,1,4,11,17,0,-699.4575,-3582.3064,-68.1058,0.0109,0.0078,0.0217,341.1797,1.8439,0.0000,0.003,-0.003,-0.001,-0.001,0.121,0.153,0.127,37.27033912774,126.99072234137,31.9413,-3057721.4487,4059100.7685,3841344.8114,1.7676,1.2817,3.5138,2.2189,2.7562,2.1434,37.27664835970,127.03111078942,122.2941,0.00000000000,0.00000000000,0.0000,12291000,0.000,190.392258,23.290197,0.000000,0.000000,0,0,0,0*befce52c",2612,2.52,99.51
"$GNGGA,032433.10,3716.22034738,N,12659.44334025,E,1,28,0.6,31.9411,M,23.2902,M,,*4F$GNGST,032433.10,1.17,1.77,1.28,176.4287,1.767,1.282,3.514*44$AGRICA,51,GPS,FINE,2373,12291100,0,0,18,31;GNSS,232,25,6,29,3,24,33,1,4,11,17,0,-699.4579,-3582.3066,-68.1060,0.0109,0.0078,0.0217,341.0572,1.9195,0.0000,0.011,-0.008,0.006,-0.005,0.121,0.153,0.127,37.27033912302,126.99072233751,31.9411,-3057721.4485,4059100.7688,3841344.8108,1.7669,1.2817,3.5135,2.2185,2.7556,2.1434,37.27664835970,127.03111078942,122.2941,0.00000000000,0.00000000000,0.0000,12291100,0.000,142.245377,23.290197,0.000000,0.000000,0,0,0,0*dd98b596$GNGGA,032433.20,3716.22034679,N,12659.44334057,E,1,28,0.6,31.9403,M,23.2902,M,,*4E",2618,2.12,99.49
"$GNGST,032433.20,1.19,1.77,1.28,176.4253,1.767,1.282,3.514*40$AGRICA,51,GPS,FINE,2373,12291200,0,0,18,31;GNSS,232,25,6,29,3,24,33,1,4,11,17,0,-699.4590,-3582.3064,-68.1068,0.0109,0.0078,0.0217,341.2395,1.6498,0.0000,0.004,0.001,-0.004,-0.002,0.121,0.153,0.127,37.27033911323,126.99072234286,31.9403,-3057721.4489,4059100.7685,3841344.8095,1.7665,1.2817,3.5137,2.2187,2.7555,2.1434,37.27664835970,127.03111078942,122.2941,0.00000000000,0.00000000000,0.0000,12291200,0.000,290.030914,23.290197,0.000000,0.000000,0,0,0,0*49083a17$GNGGA,032433.30,3716.22034668,N,12659.44334026,E,1,28,0.6,31.9399,M,23.2902,M,,*4D",2621,1.78,99.47
"$GNGST,032433.30,1.19,1.77,1.28,176.4255,1.766,1.281,3.514*45$AGRICA,51,GPS,FINE,2373,12291300,0,0,18,31;GNSS,232,25,6,29,3,24,33,1,4,11,17,0,-699.4592,-3582.3066,-68.1072,0.0109,0.0078,0.0217,341.2115,1.9851,0.0000,0.009,-0.004,-0.007,-0.004,0.121,0.153,0.127,37.27033911135,126.99072233760,31.9399,-3057721.4484,4059100.7687,3841344.8091,1.7662,1.2814,3.5140,2.2188,2.7556,2.1432,37.27664835970,127.03111078942,122.2941,0.00000000000,0.00000000000,0.0000,12291300,0.000,239.425079,23.290197,0.000000,0.000000,0,0,0,0*250c5115$GNGGA,032433.40,3716.22034628,N,12659.44333971,E,1,28,0.6,31.9393,M,23.2902,M,,*48$GNGST,032433.40,1.19,1.77,1.28,176.4291,1.766,1.281,3.514*4A$AGRICA,51,GPS,FINE,2373,12291400,0,0,18,30;GNSS,232,25,6,29,3,24,33,1,4,11,17,0,-699.4600,-3582.3076,-68.1079,0.0109,0.0078,0.0217,341.2110,1.7086,0.0000,0.005,-0.005,-0.002,-0.002,0.121,0.153,0.127,37.27033910460,126.99072232853,31.9393,-3057721.4478,4059100.7691,3841344.8081,1.7662,1.2813,3.5142,2.2188,2.7559,2.1431,37.27664835970,127.03111078942,122.2941,0.00000000000,0.00000000000,0.0000,12291400,0.000,206.836395,23.290197,0.000000,0.000000,0,0,0,0*d0082257",2630,1.54,99.44
"$GNGGA,032433.50,3716.22034585,N,12659.44333950,E,1,28,0.6,31.9388,M,23.2902,M,,*44$GNGST,032433.50,1.19,1.77,1.28,176.4236,1.766,1.281,3.514*46$AGRICA,51,GPS,FINE,2373,12291500,0,0,18,30;GNSS,232,25,6,29,3,24,33,1,4,11,17,0,-699.4608,-3582.3079,-68.1083,0.0109,0.0078,0.0217,341.2670,1.7444,0.0000,0.005,-0.004,0.004,-0.001,0.121,0.153,0.127,37.27033909744,126.99072232503,31.9388,-3057721.4476,4059100.7694,3841344.8072,1.7660,1.2812,3.5139,2.2187,2.7555,2.1430,37.27664835970,127.03111078942,122.2941,0.00000000000,0.00000000000,0.0000,12291500,0.000,138.271774,23.290197,0.000000,0.000000,0,0,0,0*efcdb784$GNGGA,032433.60,3716.22034545,N,12659.44333969,E,1,28,0.6,31.9385,M,23.2902,M,,*4C$GNGST,032433.60,1.18,1.77,1.28,176.4486,1.766,1.281,3.514*49$AGRICA,51,GPS,FINE,2373,12291600,0,0,18,31;GNSS,232,25,6,29,3,24,33,1,4,11,17,0,-699.4615,-3582.3076,-68.1086,0.0109,0.0078,0.0217,341.1665,1.8139,0.0000,0.006,-0.003,0.005,-0.002,0.121,0.153,0.127,37.27033909077,126.99072232815,31.9385,-3057721.4479,4059100.7694,3841344.8064,1.7656,1.2812,3.5140,2.2185,2.7557,2.1427,37.27664835970,127.03111078942,122.2941,0.00000000000,0.00000000000,0.0000,12291600,0.000,125.090065,23.290197,0.000000,0.000000,0,0,0,0*d7d63e27",2632,1.32,99.42
"$GNGGA,032433.70,3716.22034509,N,12659.44333994,E,1,28,0.6,31.9381,M,23.2902,M,,*43$GNGST,032433.70,1.19,1.77,1.28,176.4319,1.765,1.281,3.514*4B$AGRICA,51,GPS,FINE,2373,12291700,0,0,18,30;GNSS,232,25,6,29,3,24,33,1,4,11,17,0,-699.4622,-3582.3071,-68.1091,0.0109,0.0078,0.0217,340.9328,1.8834,0.0000,0.006,-0.002,0.005,-0.003,0.121,0.153,0.127,37.27033908478,126.99072233239,31.9381,-3057721.4483,4059100.7692,3841344.8056,1.7653,1.2811,3.5145,2.2190,2.7557,2.1428,37.27664835970,127.03111078942,122.2941,0.00000000000,0.00000000000,0.0000,12291700,0.000,110.566429,23.290197,0.000000,0.000000,0,0,0,0*7d7bed3f$GNGGA,032433.80,3716.22034480,N,12659.44334023,E,1,28,0.6,31.9375,M,23.2902,M,,*45$GNGST,032433.80,1.18,1.77,1.28,176.4408,1.765,1.281,3.515*43$AGRICA,51,GPS,FINE,2373,12291800,0,0,18,31;GNSS,232,25,6,29,3,24,33,1,4,11,17,0,-699.4628,-3582.3069,-68.1096,0.0109,0.0078,0.0217,341.1956,1.8119,0.0000,0.005,0.000,-0.004,0.003,0.121,0.153,0.127,37.27033907996,126.99072233712,31.9375,-3057721.4485,4059100.7688,3841344.8049,1.7649,1.2812,3.5147,2.2193,2.7556,2.1427,37.27664835970,127.03111078942,122.2941,0.00000000000,0.00000000000,0.0000,12291800,0.000,265.729340,23.290197,0.000000,0.000000,0,0,0,0*0039f59d",2635,0.85,99.39
"$GNGGA,032433.90,3716.22034459,N,12659.44333992,E,1,28,0.6,31.9376,M,23.2902,M,,*47$GNGST,032433.90,1.19,1.77,1.28,176.4683,1.764,1.281,3.515*43$AGRICA,51,GPS,FINE,2373,12291900,0,0,18,30;GNSS,232,25,6,29,3,24,33,1,4,11,17,0,-699.4631,-3582.3071,-68.1095,0.0109,0.0078,0.0217,341.3361,1.9095,0.0000,0.006,0.000,-0.003,0.005,0.121,0.153,0.127,37.27033907658,126.99072233196,31.9376,-3057721.4483,4059100.7694,3841344.8046,1.7645,1.2813,3.5153,2.2196,2.7561,2.1424,37.27664835970,127.03111078942,122.2941,0.00000000000,0.00000000000,0.0000,12291900,0.000,277.456940,23.290197,0.000000,0.000000,0,0,0,0*76595b6a$GNGGA,032434.00,3716.22034443,N,12659.44333965,E,1,28,0.6,31.9379,M,23.2902,M,,*45$GNGST,032434.00,1.19,1.77,1.28,176.4530,1.765,1.282,3.515*44$AGRICA,51,GPS,FINE,2373,12292000,0,0,18,39;GNSS,232,25,6,29,3,24,34,1,4,11,17,0,-699.4634,-3582.3076,-68.1093,0.0109,0.0078,0.0217,341.1130,1.6401,0.0000,0.003,-0.001,0.003,-0.001,0.121,0.153,0.127,37.27033907384,126.99072232743,31.9379,-3057721.4483,4059100.7699,3841344.8045,1.7653,1.2816,3.5152,2.2198,2.7562,2.1427,37.27664835970,127.03111078942,122.2941,0.00000000000,0.00000000000,0.0000,12292000,0.000,102.309799,23.290197,0.000000,0.000000,0,0,0,0*317e7327",2639,0.55,99.37
"$GNGGA,032434.10,3716.22034421,N,12659.44333978,E,1,28,0.6,31.9376,M,23.2902,M,,*43$GNGST,032434.10,1.18,1.77,1.28,176.4807,1.764,1.282,3.515*4C$AGRICA,51,GPS,FINE,2373,12292100,0,0,18,31;GNSS,232,25,6,29,3,24,34,1,4,11,17,0,-699.4638,-3582.3074,-68.1096,0.0109,0.0078,0.0217,341.3109,2.1342,0.0000,0.005,0.002,0.004,-0.002,0.121,0.153,0.127,37.27033907021,126.99072232971,31.9376,-3057721.4484,4059100.7698,3841344.8041,1.7642,1.2816,3.5149,2.2193,2.7559,2.1424,37.27664835970,127.03111078942,122.2941,0.00000000000,0.00000000000,0.0000,12292100,0.000,64.966637,23.290197,0.000000,0.000000,0,0,0,0*10272bed$GNGGA,032434.20,3716.22034413,N,12659.44334003,E,1,28,0.6,31.9372,M,23.2902,M,,*47$GNGST,032434.20,1.19,1.77,1.28,176.4783,1.764,1.282,3.516*4E$AGRICA,51,GPS,FINE,2373,12292200,0,0,18,31;GNSS,232,25,6,29,3,24,34,1,4,11,17,0,-699.4640,-3582.3071,-68.1099,0.0109,0.0078,0.0217,341.1987,1.7014,0.0000,0.006,0.006,0.003,-0.001,0.121,0.153,0.127,37.27033906888,126.99072233377,31.9372,-3057721.4486,4059100.7694,3841344.8037,1.7640,1.2815,3.5156,2.2196,2.7563,2.1423,37.27664835970,127.03111078942,122.2941,0.00000000000,0.00000000000,0.0000,12292200,0.000,29.148108,23.290197,0.000000,0.000000,0,0,0,0*1a1e5d92",2648,0.17,99.34
"$GNGGA,032434.30,3716.22034424,N,12659.44334018,E,1,28,0.6,31.9369,M,23.2902,M,,*42$GNGST,032434.30,1.19,1.77,1.28,176.5269,1.764,1.282,3.516*4F$AGRICA,50,GPS,FINE,2373,12292300,0,0,18,31;GNSS,232,25,6,29,3,24,34,1,4,11,17,0,-699.4637,-3582.3069,-68.1102,0.0109,0.0078,0.0217,341.3224,1.5927,0.0000,0.005,0.003,-0.002,0.004,0.121,0.153,0.127,37.27033907068,126.99072233635,31.9369,-3057721.4486,4059100.7690,3841344.8037,1.7636,1.2818,3.5158,2.2197,2.7566,2.1421,37.27664835970,127.03111078942,122.2941,0.00000000000,0.00000000000,0.0000,12292300,0.000,324.298096,23.290197,0.000000,0.000000,0,0,0,0*d7c784c0$GNGGA,032434.40,3716.22034419,N,12659.44334000,E,1,28,0.6,31.9370,M,23.2902,M,,*4A$GNGST,032434.40,1.18,1.76,1.28,176.5508,1.763,1.282,3.515*4C$AGRICA,50,GPS,FINE,2373,12292400,0,0,18,30;GNSS,232,25,6,29,3,24,34,1,4,11,17,0,-699.4639,-3582.3071,-68.1101,0.0109,0.0078,0.0217,341.2291,1.8454,0.0000,0.013,0.003,-0.001,-0.012,0.121,0.153,0.127,37.27033906991,126.99072233334,31.9370,-3057721.4484,4059100.7693,3841344.8037,1.7633,1.2819,3.5154,2.2193,2.7564,2.1419,37.27664835970,127.03111078942,122.2941,0.00000000000,0.00000000000,0.0000,12292400,0.000,347.373077,23.290197,0.000000,0.000000,0,0,0,0*daa72e9d",2654,-0.27,99.32
"$GNGGA,032434.50,3716.22034417,N,12659.44333990,E,1,28,0.6,31.9356,M,23.2902,M,,*46$GNGST,032434.50,1.18,1.76,1.28,176.5511,1.763,1.282,3.515*45$AGRICA,50,GPS,FINE,2373,12292500,0,0,18,30;GNSS,232,25,6,29,3,24,34,1,4,11,17,0,-699.4639,-3582.3074,-68.1115,0.0109,0.0078,0.0217,341.1749,1.8875,0.0000,0.013,0.002,-0.001,-0.013,0.121,0.153,0.127,37.27033906948,126.99072233161,31.9356,-3057721.4477,4059100.7685,3841344.8028,1.7628,1.2817,3.5149,2.2194,2.7555,2.1415,37.27664835970,127.03111078942,122.2941,0.00000000000,0.00000000000,0.0000,12292500,0.000,332.135895,23.290197,0.000000,0.000000,0,0,0,0*c9bd02b3$GNGGA,032434.60,3716.22034408,N,12659.44333977,E,1,28,0.6,31.9342,M,23.2902,M,,*47$GNGST,032434.60,1.19,1.76,1.28,176.5409,1.763,1.282,3.515*4F$AGRICA,50,GPS,FINE,2373,12292600,0,0,18,30;GNSS,232,25,6,29,3,24,34,1,4,11,17,0,-699.4641,-3582.3074,-68.1130,0.0109,0.0078,0.0217,341.1460,1.8668,0.0000,0.015,-0.003,0.001,-0.015,0.121,0.153,0.127,37.27033906798,126.99072232958,31.9342,-3057721.4469,4059100.7678,3841344.8018,1.7626,1.2816,3.5148,2.2195,2.7552,2.1414,37.27664835970,127.03111078942,122.2941,0.00000000000,0.00000000000,0.0000,12292600,0.000,170.507996,23.290197,0.000000,0.000000,0,0,0,0*4c2d4348",2654,-0.73,99.3
"$GNGGA,032434.70,3716.22034369,N,12659.44333977,E,1,28,0.6,31.9326,M,23.2902,M,,*44$GNGST,032434.70,1.18,1.76,1.28,176.5093,1.762,1.281,3.515*4A$AGRICA,50,GPS,FINE,2373,12292700,0,0,18,30;GNSS,232,25,6,29,3,24,34,1,4,11,17,0,-699.4648,-3582.3074,-68.1145,0.0109,0.0078,0.0217,341.0082,1.7421,0.0000,0.011,-0.004,0.008,-0.006,0.121,0.153,0.127,37.27033906143,126.99072232955,31.9326,-3057721.4464,4059100.7671,3841344.8003,1.7622,1.2814,3.5147,2.2196,2.7546,2.1415,37.27664835970,127.03111078942,122.2941,0.00000000000,0.00000000000,0.0000,12292700,0.000,117.424660,23.290197,0.000000,0.000000,0,0,0,0*0803442c$GNGGA,032434.80,3716.22034326,N,12659.44334025,E,1,28,0.6,31.9319,M,23.2902,M,,*45$GNGST,032434.80,1.18,1.76,1.28,176.5232,1.762,1.281,3.514*4D$AGRICA,50,GPS,FINE,2373,12292800,0,0,18,30;GNSS,232,25,6,29,3,24,34,1,4,11,17,0,-699.4656,-3582.3066,-68.1152,0.0109,0.0078,0.0217,341.1578,1.6579,0.0000,0.008,0.002,0.007,-0.003,0.121,0.153,0.127,37.27033905441,126.99072233746,31.9319,-3057721.4469,4059100.7666,3841344.7992,1.7618,1.2814,3.5144,2.2193,2.7543,2.1413,37.27664835970,127.03111078942,122.2941,0.00000000000,0.00000000000,0.0000,12292800,0.000,71.753868,23.290197,0.000000,0.000000,0,0,0,0*54d50d90",2656,-1.18,99.27
"$GNGGA,032434.90,3716.22034320,N,12659.44334067,E,1,28,0.6,31.9314,M,23.2902,M,,*49$GNGST,032434.90,1.18,1.76,1.28,176.5287,1.762,1.281,3.514*42$AGRICA,50,GPS,FINE,2373,12292900,0,0,18,30;GNSS,232,25,6,29,3,24,34,1,4,11,17,0,-699.4657,-3582.3062,-68.1157,0.0109,0.0078,0.0217,341.1425,1.9650,0.0000,0.006,0.004,-0.002,-0.003,0.121,0.153,0.127,37.27033905327,126.99072234456,31.9314,-3057721.4472,4059100.7660,3841344.7988,1.7617,1.2814,3.5142,2.2191,2.7543,2.1412,37.27664835970,127.03111078942,122.2941,0.00000000000,0.00000000000,0.0000,12292900,0.000,336.416016,23.290197,0.000000,0.000000,0,0,0,0*7f320c6d$GNGGA,032435.00,3716.22034323,N,12659.44334050,E,1,28,0.6,31.9309,M,23.2902,M,,*4A$GNGST,032435.00,1.18,1.76,1.28,176.5473,1.761,1.281,3.514*44$AGRICA,50,GPS,FINE,2373,12293000,0,0,18,39;GNSS,232,25,6,29,3,24,35,1,4,11,17,0,-699.4656,-3582.3064,-68.1162,0.0109,0.0078,0.0217,341.1507,1.8181,0.0000,0.006,0.003,-0.003,-0.004,0.121,0.153,0.127,37.27033905390,126.99072234173,31.9309,-3057721.4468,4059100.7658,3841344.7986,1.7611,1.2813,3.5144,2.2190,2.7543,2.1410,37.27664835970,127.03111078942,122.2941,0.00000000000,0.00000000000,0.0000,12293000,0.000,308.886505,23.290197,0.000000,0.000000,0,0,0,0*1eb175b1",2665,-1.51,99.25
"$GNGGA,032435.10,3716.22034317,N,12659.44334025,E,1,28,0.6,31.9304,M,23.2902,M,,*43$GNGST,032435.10,1.18,1.76,1.28,176.5900,1.761,1.281,3.514*4C$AGRICA,50,GPS,FINE,2373,12293100,0,0,18,31;GNSS,232,25,6,29,3,24,35,1,4,11,17,0,-699.4658,-3582.3066,-68.1167,0.0109,0.0078,0.0217,341.1586,1.7732,0.0000,0.005,0.000,0.001,-0.005,0.121,0.153,0.127,37.27033905278,126.99072233748,31.9304,-3057721.4462,4059100.7658,3841344.7982,1.7608,1.2815,3.5138,2.2185,2.7541,2.1407,37.27664835970,127.03111078942,122.2941,0.00000000000,0.00000000000,0.0000,12293100,0.000,87.474091,23.290197,0.000000,0.000000,0,0,0,0*16ec186d$GNGGA,032435.20,3716.22034296,N,12659.44334029,E,1,28,0.6,31.9297,M,23.2902,M,,*4F$GNGST,032435.20,1.18,1.76,1.28,176.5887,1.761,1.281,3.513*46$AGRICA,50,GPS,FINE,2373,12293200,0,0,18,31;GNSS,232,25,6,29,3,24,35,1,4,11,17,0,-699.4661,-3582.3066,-68.1174,0.0109,0.0078,0.0217,341.2534,2.0160,0.0000,0.007,0.002,0.002,-0.007,0.121,0.153,0.127,37.27033904938,126.99072233824,31.9297,-3057721.4461,4059100.7655,3841344.7975,1.7607,1.2813,3.5133,2.2181,2.7538,2.1404,37.27664835970,127.03111078942,122.2941,0.00000000000,0.00000000000,0.0000,12293200,0.000,49.034836,23.290197,0.000000,0.000000,0,0,0,0*65d6ca13",2670,-1.73,99.22
"$GNGGA,032435.30,3716.22034285,N,12659.44334040,E,1,28,0.6,31.9290,M,23.2902,M,,*44$GNGST,032435.30,1.18,1.76,1.28,176.5906,1.760,1.281,3.514*49$AGRICA,50,GPS,FINE,2373,12293300,0,0,18,31;GNSS,232,25,6,29,3,24,35,1,4,11,17,0,-699.4663,-3582.3066,-68.1181,0.0109,0.0078,0.0217,341.1647,1.6048,0.0000,0.006,0.003,-0.002,-0.005,0.121,0.153,0.127,37.27033904754,126.99072233999,31.9290,-3057721.4460,4059100.7650,3841344.7969,1.7603,1.2810,3.5135,2.2182,2.7538,2.1402,37.27664835970,127.03111078942,122.2941,0.00000000000,0.00000000000,0.0000,12293300,0.000,332.337341,23.290197,0.000000,0.000000,0,0,0,0*6d8671be$GNGGA,032435.40,3716.22034281,N,12659.44334025,E,1,28,0.6,31.9284,M,23.2902,M,,*41$GNGST,032435.40,1.18,1.76,1.28,176.5895,1.760,1.281,3.514*45$AGRICA,50,GPS,FINE,2373,12293400,0,0,18,31;GNSS,232,25,6,29,3,24,35,1,4,11,17,0,-699.4664,-3582.3066,-68.1187,0.0109,0.0078,0.0217,341.1167,2.0573,0.0000,0.006,0.003,0.002,-0.005,0.121,0.153,0.127,37.27033904677,126.99072233745,31.9284,-3057721.4455,4059100.7648,3841344.7964,1.7597,1.2810,3.5136,2.2182,2.7537,2.1402,37.27664835970,127.03111078942,122.2941,0.00000000000,0.00000000000,0.0000,12293400,0.000,25.511299,23.290197,0.000000,0.000000,0,0,0,0*aea979c1",2671,-2.22,99.2
"$GNGGA,032435.50,3716.22034277,N,12659.44334031,E,1,28,0.6,31.9278,M,23.2902,M,,*4F$GNGST,032435.50,1.18,1.76,1.28,176.6138,1.759,1.281,3.513*44$AGRICA,50,GPS,FINE,2373,12293500,0,0,18,30;GNSS,232,25,6,29,3,24,35,1,4,11,17,0,-699.4665,-3582.3066,-68.1193,0.0109,0.0078,0.0217,341.0914,1.7269,0.0000,0.006,0.001,0.000,-0.006,0.121,0.153,0.127,37.27033904623,126.99072233858,31.9278,-3057721.4453,4059100.7644,3841344.7960,1.7595,1.2810,3.5135,2.2178,2.7537,2.1400,37.27664835970,127.03111078942,122.2941,0.00000000000,0.00000000000,0.0000,12293500,0.000,21.266817,23.290197,0.000000,0.000000,0,0,0,0*440867c1$GNGGA,032435.60,3716.22034261,N,12659.44334030,E,1,28,0.6,31.9271,M,23.2902,M,,*43",2671,-2.52,99.17
"$GNGST,032435.60,1.18,1.76,1.28,176.6380,1.759,1.281,3.514*41$AGRICA,50,GPS,FINE,2373,12293600,0,0,18,30;GNSS,232,25,6,29,3,24,35,1,4,11,17,0,-699.4668,-3582.3066,-68.1201,0.0109,0.0078,0.0217,341.2008,1.8020,0.0000,0.006,0.000,0.003,-0.006,0.121,0.153,0.127,37.27033904353,126.99072233840,31.9271,-3057721.4451,4059100.7641,3841344.7953,1.7592,1.2813,3.5140,2.2182,2.7541,2.1400,37.27664835970,127.03111078942,122.2941,0.00000000000,0.00000000000,0.0000,12293600,0.000,87.196930,23.290197,0.000000,0.000000,0,0,0,0*66ce7702$GNGGA,032435.70,3716.22034241,N,12659.44334047,E,1,28,0.6,31.9264,M,23.2902,M,,*44$GNGST,032435.70,1.18,1.76,1.28,176.6862,1.759,1.281,3.515*46$AGRICA,50,GPS,FINE,2373,12293700,0,0,18,30;GNSS,232,25,6,29,3,24,35,1,4,11,17,0,-699.4672,-3582.3064,-68.1207,0.0109,0.0078,0.0217,341.0787,1.7447,0.0000,0.009,0.002,0.005,-0.008,0.121,0.153,0.127,37.27033904009,126.99072234117,31.9264,-3057721.4451,4059100.7637,3841344.7946,1.7588,1.2813,3.5149,2.2181,2.7551,2.1399,37.27664835970,127.03111078942,122.2941,0.00000000000,0.00000000000,0.0000,12293700,0.000,64.538506,23.290197,0.000000,0.000000,0,0,0,0*65658080",2672,-2.93,99.15
"$GNGGA,032435.80,3716.22034231,N,12659.44334076,E,1,28,0.6,31.9255,M,23.2902,M,,*4C$GNGST,032435.80,1.18,1.76,1.28,176.6850,1.759,1.281,3.515*48$AGRICA,50,GPS,FINE,2373,12293800,0,0,18,30;GNSS,232,25,6,29,3,24,35,1,4,11,17,0,-699.4673,-3582.3059,-68.1216,0.0109,0.0078,0.0217,341.1122,2.1249,0.0000,0.013,0.004,0.005,-0.012,0.121,0.153,0.127,37.27033903851,126.99072234596,31.9255,-3057721.4451,4059100.7630,3841344.7940,1.7589,1.2814,3.5152,2.2185,2.7554,2.1398,37.27664835970,127.03111078942,122.2941,0.00000000000,0.00000000000,0.0000,12293800,0.000,50.650867,23.290197,0.000000,0.000000,0,0,0,0*903434b3",2680,-3.37,99.13
"$GNGGA,032435.90,3716.22034231,N,12659.44334104,E,1,28,0.6,31.9243,M,23.2902,M,,*4E$GNGST,032435.90,1.18,1.76,1.28,176.6742,1.760,1.282,3.516*4F$AGRICA,50,GPS,FINE,2373,12293900,0,0,18,30;GNSS,232,25,6,29,3,24,35,1,4,11,17,0,-699.4673,-3582.3057,-68.1228,0.0109,0.0078,0.0217,341.1698,1.9450,0.0000,0.008,0.000,0.002,-0.008,0.121,0.153,0.127,37.27033903846,126.99072235072,31.9243,-3057721.4448,4059100.7619,3841344.7932,1.7598,1.2818,3.5156,2.2193,2.7555,2.1402,37.27664835970,127.03111078942,122.2941,0.00000000000,0.00000000000,0.0000,12293900,0.000,95.934494,23.290197,0.000000,0.000000,0,0,0,0*a8113b95$GNGGA,032436.00,3716.22034209,N,12659.44334113,E,1,28,0.6,31.9234,M,23.2902,M,,*49$GNGST,032436.00,1.18,1.76,1.28,176.6467,1.760,1.282,3.515*42$AGRICA,50,GPS,FINE,2373,12294000,0,0,18,39;GNSS,232,25,6,29,3,24,36,1,4,11,17,0,-699.4678,-3582.3054,-68.1237,0.0109,0.0078,0.0217,341.0856,1.8566,0.0000,0.004,0.002,-0.002,-0.002,0.121,0.153,0.127,37.27033903482,126.99072235211,31.9234,-3057721.4447,4059100.7615,3841344.7924,1.7596,1.2816,3.5146,2.2189,2.7546,2.1401,37.27664835970,127.03111078942,122.2941,0.00000000000,0.00000000000,0.0000,12294000,0.000,319.351746,23.290197,0.000000,0.000000,0,0,0,0*a117742a",2687,-3.58,99.1
"$GNGGA,032436.10,3716.22034199,N,12659.44334097,E,1,28,0.6,31.9231,M,23.2902,M,,*4A$GNGST,032436.10,1.18,1.76,1.28,176.6304,1.760,1.282,3.515*41$AGRICA,50,GPS,FINE,2373,12294100,0,0,18,31;GNSS,232,25,6,29,3,24,36,1,4,11,17,0,-699.4680,-3582.3057,-68.1240,0.0109,0.0078,0.0217,341.3577,1.9503,0.0000,0.007,0.005,-0.002,-0.005,0.121,0.153,0.127,37.27033903312,126.99072234952,31.9231,-3057721.4444,4059100.7616,3841344.7920,1.7599,1.2816,3.5151,2.2193,2.7549,2.1403,37.27664835970,127.03111078942,122.2941,0.00000000000,0.00000000000,0.0000,12294100,0.000,339.417145,23.290197,0.000000,0.000000,0,0,0,0*6c83a8a5$GNGGA,032436.20,3716.22034204,N,12659.44334082,E,1,28,0.6,31.9226,M,23.2902,M,,*4C$GNGST,032436.20,1.18,1.76,1.28,176.6388,1.759,1.281,3.515*4F$AGRICA,50,GPS,FINE,2373,12294200,0,0,18,31;GNSS,232,25,6,29,3,24,36,1,4,11,17,0,-699.4678,-3582.3059,-68.1245,0.0109,0.0078,0.0217,341.2577,1.9266,0.0000,0.006,0.003,0.001,-0.004,0.121,0.153,0.127,37.27033903393,126.99072234693,31.9226,-3057721.4439,4059100.7613,3841344.7918,1.7595,1.2815,3.5148,2.2189,2.7547,2.1401,37.27664835970,127.03111078942,122.2941,0.00000000000,0.00000000000,0.0000,12294200,0.000,15.793420,23.290197,0.000000,0.000000,0,0,0,0*204e5c92",2688,-3.99,99.08
"$GNGGA,032436.30,3716.22034199,N,12659.44334084,E,1,28,0.6,31.9221,M,23.2902,M,,*4B$GNGST,032436.30,1.18,1.76,1.28,176.6481,1.760,1.281,3.514*4B$AGRICA,50,GPS,FINE,2373,12294300,0,0,18,31;GNSS,232,25,6,29,3,24,36,1,4,11,17,0,-699.4679,-3582.3059,-68.1250,0.0109,0.0078,0.0217,341.2289,1.6612,0.0000,0.006,-0.001,0.005,-0.004,0.121,0.153,0.127,37.27033903324,126.99072234735,31.9221,-3057721.4438,4059100.7610,3841344.7914,1.7596,1.2813,3.5145,2.2186,2.7546,2.1400,37.27664835970,127.03111078942,122.2941,0.00000000000,0.00000000000,0.0000,12294300,0.000,97.907616,23.290197,0.000000,0.000000,0,0,0,0*bd29b3a3$GNGGA,032436.40,3716.22034174,N,12659.44334114,E,1,28,0.6,31.9217,M,23.2902,M,,*42",2688,-4.41,99.05
"$GNGST,032436.40,1.18,1.76,1.28,176.6380,1.759,1.281,3.515*41$AGRICA,50,GPS,FINE,2373,12294400,0,0,18,30;GNSS,232,25,6,29,3,24,36,1,4,11,17,0,-699.4684,-3582.3054,-68.1254,0.0109,0.0078,0.0217,341.1099,1.4709,0.0000,0.008,-0.001,-0.001,-0.008,0.121,0.153,0.127,37.27033902899,126.99072235232,31.9217,-3057721.4441,4059100.7607,3841344.7908,1.7593,1.2810,3.5151,2.2189,2.7548,2.1401,37.27664835970,127.03111078942,122.2941,0.00000000000,0.00000000000,0.0000,12294400,0.000,223.372650,23.290197,0.000000,0.000000,0,0,0,0*ced0ef87$GNGGA,032436.50,3716.22034146,N,12659.44334103,E,1,28,0.6,31.9209,M,23.2902,M,,*4B$GNGST,032436.50,1.18,1.76,1.28,176.6693,1.758,1.281,3.514*47$AGRICA,50,GPS,FINE,2373,12294500,0,0,18,30;GNSS,232,25,6,29,3,24,36,1,4,11,17,0,-699.4689,-3582.3057,-68.1262,0.0109,0.0078,0.0217,341.1434,2.0613,0.0000,0.009,0.000,-0.002,-0.008,0.121,0.153,0.127,37.27033902438,126.99072235057,31.9209,-3057721.4438,4059100.7606,3841344.7899,1.7585,1.2809,3.5144,2.2181,2.7543,2.1396,37.27664835970,127.03111078942,122.2941,0.00000000000,0.00000000000,0.0000,12294500,0.000,273.643402,23.290197,0.000000,0.000000,0,0,0,0*c3d12ba0",2690,-4.64,99.03
"$GNGGA,032436.60,3716.22034125,N,12659.44334085,E,1,28,0.6,31.9201,M,23.2902,M,,*4A$GNGST,032436.60,1.18,1.76,1.28,176.6729,1.758,1.281,3.515*45$AGRICA,50,GPS,FINE,2373,12294600,0,0,18,31;GNSS,232,25,6,29,3,24,36,1,4,11,17,0,-699.4693,-3582.3059,-68.1271,0.0109,0.0078,0.0217,341.1481,1.8398,0.0000,0.007,0.003,0.003,-0.006,0.121,0.153,0.127,37.27033902080,126.99072234745,31.9201,-3057721.4433,4059100.7604,3841344.7891,1.7579,1.2806,3.5149,2.2183,2.7542,2.1396,37.27664835970,127.03111078942,122.2941,0.00000000000,0.00000000000,0.0000,12294600,0.000,52.041718,23.290197,0.000000,0.000000,0,0,0,0*6b9565b5$GNGGA,032436.70,3716.22034116,N,12659.44334103,E,1,28,0.6,31.9196,M,23.2902,M,,*49",2699,-4.88,99
"$GNGST,032436.70,1.18,1.76,1.28,176.7104,1.758,1.281,3.514*4D$AGRICA,50,GPS,FINE,2373,12294700,0,0,18,30;GNSS,232,25,6,29,3,24,36,1,4,11,17,0,-699.4695,-3582.3057,-68.1276,0.0109,0.0078,0.0217,341.3690,1.8568,0.0000,0.006,0.003,0.000,-0.005,0.121,0.153,0.127,37.27033901930,126.99072235051,31.9196,-3057721.4433,4059100.7600,3841344.7887,1.7579,1.2810,3.5143,2.2178,2.7542,2.1394,37.27664835970,127.03111078942,122.2941,0.00000000000,0.00000000000,0.0000,12294700,0.000,3.314368,23.290197,0.000000,0.000000,0,0,0,0*211acf97$GNGGA,032436.80,3716.22034111,N,12659.44334100,E,1,28,0.6,31.9191,M,23.2902,M,,*45",2706,-5.36,98.98
"$GNGST,032436.80,1.18,1.76,1.28,176.6996,1.758,1.281,3.514*40$AGRICA,50,GPS,FINE,2373,12294800,0,0,18,30;GNSS,232,25,6,29,3,24,36,1,4,11,17,0,-699.4695,-3582.3057,-68.1280,0.0109,0.0078,0.0217,341.3612,2.0054,0.0000,0.004,0.003,0.001,-0.002,0.121,0.153,0.127,37.27033901845,126.99072235005,31.9191,-3057721.4431,4059100.7597,3841344.7883,1.7579,1.2809,3.5141,2.2178,2.7541,2.1393,37.27664835970,127.03111078942,122.2941,0.00000000000,0.00000000000,0.0000,12294800,0.000,15.709112,23.290197,0.000000,0.000000,0,0,0,0*7342f274$GNGGA,032436.90,3716.22034102,N,12659.44334101,E,1,28,0.6,31.9189,M,23.2902,M,,*4E$GNGST,032436.90,1.18,1.76,1.28,176.6809,1.758,1.281,3.514*46$AGRICA,50,GPS,FINE,2373,12294900,0,0,18,31;GNSS,232,25,6,29,3,24,36,1,4,11,17,0,-699.4697,-3582.3057,-68.1282,0.0109,0.0078,0.0217,341.1519,1.6250,0.0000,0.007,0.000,0.000,-0.007,0.121,0.153,0.127,37.27033901694,126.99072235016,31.9189,-3057721.4431,4059100.7597,3841344.7880,1.7583,1.2809,3.5144,2.2181,2.7542,2.1395,37.27664835970,127.03111078942,122.2941,0.00000000000,0.00000000000,0.0000,12294900,0.000,43.221626,23.290197,0.000000,0.000000,0,0,0,0*3418f921",2713,-5.82,98.96
"$GNGGA,032437.00,3716.22034081,N,12659.44334100,E,1,28,0.6,31.9182,M,23.2902,M,,*46$GNGST,032437.00,1.18,1.76,1.28,176.6824,1.758,1.281,3.514*41$AGRICA,50,GPS,FINE,2373,12295000,0,0,18,39;GNSS,232,25,6,29,3,24,37,1,4,11,17,0,-699.4701,-3582.3057,-68.1290,0.0109,0.0078,0.0217,341.0023,1.8948,0.0000,0.009,-0.004,0.002,-0.008,0.121,0.153,0.127,37.27033901349,126.99072235006,31.9182,-3057721.4429,4059100.7594,3841344.7873,1.7580,1.2811,3.5142,2.2181,2.7539,2.1396,37.27664835970,127.03111078942,122.2941,0.00000000000,0.00000000000,0.0000,12295000,0.000,153.712494,23.290197,0.000000,0.000000,0,0,0,0*e4702843$GNGGA,032437.10,3716.22034040,N,12659.44334109,E,1,28,0.6,31.9173,M,23.2902,M,,*4D$GNGST,032437.10,1.18,1.76,1.28,176.6640,1.758,1.281,3.514*4C$AGRICA,50,GPS,FINE,2373,12295100,0,0,18,30;GNSS,232,25,6,29,3,24,37,1,4,11,17,0,-699.4709,-3582.3054,-68.1299,0.0109,0.0078,0.0217,341.1547,1.9149,0.0000,0.006,0.000,-0.001,-0.006,0.121,0.153,0.127,37.27033900674,126.99072235153,31.9173,-3057721.4428,4059100.7591,3841344.7861,1.7578,1.2809,3.5137,2.2180,2.7531,2.1396,37.27664835970,127.03111078942,122.2941,0.00000000000,0.00000000000,0.0000,12295100,0.000,253.689255,23.290197,0.000000,0.000000,0,0,0,0*0ea44810",2721,-6.19,98.93
"$GNGGA,032437.20,3716.22034017,N,12659.44334099,E,1,28,0.6,31.9167,M,23.2902,M,,*41$GNGST,032437.20,1.18,1.76,1.28,176.6365,1.758,1.281,3.513*4A$AGRICA,50,GPS,FINE,2373,12295200,0,0,18,31;GNSS,232,25,6,29,3,24,37,1,4,11,17,0,-699.4713,-3582.3057,-68.1304,0.0109,0.0078,0.0217,341.2221,1.6680,0.0000,0.003,0.002,0.000,-0.003,0.121,0.153,0.127,37.27033900283,126.99072234981,31.9167,-3057721.4426,4059100.7591,3841344.7855,1.7579,1.2807,3.5131,2.2179,2.7524,2.1394,37.27664835970,127.03111078942,122.2941,0.00000000000,0.00000000000,0.0000,12295200,0.000,356.432556,23.290197,0.000000,0.000000,0,0,0,0*afada9bc$GNGGA,032437.30,3716.22034006,N,12659.44334095,E,1,28,0.6,31.9166,M,23.2902,M,,*4D$GNGST,032437.30,1.18,1.76,1.28,176.6788,1.757,1.281,3.513*43$AGRICA,50,GPS,FINE,2373,12295300,0,0,18,31;GNSS,232,25,6,29,3,24,37,1,4,11,17,0,-699.4715,-3582.3057,-68.1306,0.0109,0.0078,0.0217,341.1317,1.9396,0.0000,0.005,0.003,0.002,-0.004,0.121,0.153,0.127,37.27033900101,126.99072234911,31.9166,-3057721.4425,4059100.7591,3841344.7852,1.7575,1.2810,3.5135,2.2181,2.7528,2.1393,37.27664835970,127.03111078942,122.2941,0.00000000000,0.00000000000,0.0000,12295300,0.000,33.998741,23.290197,0.000000,0.000000,0,0,0,0*05549f9b",2724,-6.6,98.91
"$GNGGA,032437.40,3716.22033999,N,12659.44334104,E,1,28,0.6,31.9162,M,23.2902,M,,*4F$GNGST,032437.40,1.18,1.76,1.28,176.6649,1.758,1.281,3.514*40$AGRICA,50,GPS,FINE,2373,12295400,0,0,18,30;GNSS,232,25,6,29,3,24,37,1,4,11,17,0,-699.4716,-3582.3057,-68.1309,0.0109,0.0078,0.0217,341.0843,1.6093,0.0000,0.006,-0.004,0.004,-0.003,0.121,0.153,0.127,37.27033899978,126.99072235066,31.9162,-3057721.4425,4059100.7589,3841344.7849,1.7584,1.2814,3.5139,2.2188,2.7533,2.1396,37.27664835970,127.03111078942,122.2941,0.00000000000,0.00000000000,0.0000,12295400,0.000,132.477203,23.290197,0.000000,0.000000,0,0,0,0*40869dd3$GNGGA,032437.50,3716.22033957,N,12659.44334128,E,1,28,0.6,31.9160,M,23.2902,M,,*40$GNGST,032437.50,1.18,1.76,1.28,176.6670,1.758,1.281,3.515*4A$AGRICA,50,GPS,FINE,2373,12295500,0,0,18,30;GNSS,232,25,6,29,3,24,37,1,4,11,17,0,-699.4724,-3582.3052,-68.1312,0.0109,0.0078,0.0217,341.1949,1.8552,0.0000,0.005,0.001,0.003,-0.003,0.121,0.153,0.127,37.27033899283,126.99072235469,31.9160,-3057721.4430,4059100.7589,3841344.7841,1.7583,1.2811,3.5147,2.2191,2.7541,2.1394,37.27664835970,127.03111078942,122.2941,0.00000000000,0.00000000000,0.0000,12295500,0.000,70.940651,23.290197,0.000000,0.000000,0,0,0,0*b0a08b56",2732,-6.97,98.88
"$GNGGA,032437.60,3716.22033941,N,12659.44334144,E,1,28,0.6,31.9156,M,23.2902,M,,*4B$GNGST,032437.60,1.18,1.76,1.28,176.6882,1.758,1.281,3.515*4A$AGRICA,50,GPS,FINE,2373,12295600,0,0,18,30;GNSS,232,25,6,29,3,24,37,1,4,11,17,0,-699.4727,-3582.3049,-68.1315,0.0109,0.0078,0.0217,341.1096,1.9700,0.0000,0.012,0.006,-0.002,-0.010,0.121,0.153,0.127,37.27033899011,126.99072235726,31.9156,-3057721.4431,4059100.7587,3841344.7837,1.7580,1.2812,3.5150,2.2190,2.7544,2.1394,37.27664835970,127.03111078942,122.2941,0.00000000000,0.00000000000,0.0000,12295600,0.000,344.295776,23.290197,0.000000,0.000000,0,0,0,0*b710a88b$GNGGA,032437.70,3716.22033949,N,12659.44334129,E,1,28,0.6,31.9146,M,23.2902,M,,*48$GNGST,032437.70,1.18,1.76,1.28,176.6372,1.759,1.281,3.516*4D$AGRICA,50,GPS,FINE,2373,12295700,0,0,18,30;GNSS,232,25,6,29,3,24,37,1,4,11,17,0,-699.4725,-3582.3052,-68.1325,0.0109,0.0078,0.0217,341.2891,2.0085,0.0000,0.013,0.005,-0.005,-0.010,0.121,0.153,0.127,37.27033899154,126.99072235482,31.9146,-3057721.4424,4059100.7581,3841344.7832,1.7586,1.2814,3.5156,2.2199,2.7545,2.1398,37.27664835970,127.03111078942,122.2941,0.00000000000,0.00000000000,0.0000,12295700,0.000,316.422394,23.290197,0.000000,0.000000,0,0,0,0*028bd189",2738,-7.2,98.86
"$GNGGA,032437.80,3716.22033956,N,12659.44334090,E,1,28,0.6,31.9137,M,23.2902,M,,*4C$GNGST,032437.80,1.18,1.76,1.28,176.5833,1.759,1.282,3.517*4D$AGRICA,50,GPS,FINE,2373,12295800,0,0,18,30;GNSS,232,25,6,29,3,24,37,1,4,11,17,0,-699.4724,-3582.3057,-68.1334,0.0109,0.0078,0.0217,341.1114,2.0660,0.0000,0.007,0.004,0.002,-0.005,0.121,0.153,0.127,37.27033899272,126.99072234840,31.9137,-3057721.4415,4059100.7578,3841344.7828,1.7595,1.2817,3.5166,2.2211,2.7552,2.1403,37.27664835970,127.03111078942,122.2941,0.00000000000,0.00000000000,0.0000,12295800,0.000,28.867794,23.290197,0.000000,0.000000,0,0,0,0*8fbc28d2$GNGGA,032437.90,3716.22033957,N,12659.44334103,E,1,28,0.6,31.9134,M,23.2902,M,,*44$GNGST,032437.90,1.18,1.76,1.28,176.6035,1.759,1.282,3.518*4E$AGRICA,50,GPS,FINE,2373,12295900,0,0,18,30;GNSS,232,25,6,29,3,24,37,1,4,11,17,0,-699.4724,-3582.3057,-68.1338,0.0109,0.0078,0.0217,341.3096,1.7465,0.0000,0.005,0.003,0.000,-0.004,0.121,0.153,0.127,37.27033899291,126.99072235049,31.9134,-3057721.4414,4059100.7575,3841344.7826,1.7595,1.2819,3.5180,2.2219,2.7563,2.1405,37.27664835970,127.03111078942,122.2941,0.00000000000,0.00000000000,0.0000,12295900,0.000,357.526489,23.290197,0.000000,0.000000,0,0,0,0*1968aaa0",2740,-7.42,98.83
"$GNGGA,032438.00,3716.22033948,N,12659.44334100,E,1,28,0.6,31.9130,M,23.2902,M,,*4B$GNGST,032438.00,1.18,1.76,1.28,176.5772,1.759,1.282,3.519*4E$AGRICA,50,GPS,FINE,2373,12296000,0,0,18,39;GNSS,232,25,6,29,3,24,38,1,4,11,17,0,-699.4726,-3582.3057,-68.1341,0.0109,0.0078,0.0217,340.9597,1.7932,0.0000,0.008,-0.001,0.008,-0.001,0.121,0.153,0.127,37.27033899134,126.99072235004,31.9130,-3057721.4413,4059100.7574,3841344.7822,1.7592,1.2820,3.5186,2.2226,2.7562,2.1406,37.27664835970,127.03111078942,122.2941,0.00000000000,0.00000000000,0.0000,12296000,0.000,100.059181,23.290197,0.000000,0.000000,0,0,0,0*0cd9d463$GNGGA,032438.10,3716.22033917,N,12659.44334151,E,1,28,0.6,31.9131,M,23.2902,M,,*45$GNGST,032438.10,1.18,1.76,1.28,176.5808,1.759,1.282,3.519*4D$AGRICA,50,GPS,FINE,2373,12296100,0,0,18,31;GNSS,232,25,6,29,3,24,38,1,4,11,17,0,-699.4731,-3582.3049,-68.1340,0.0109,0.0078,0.0217,341.1722,2.1165,0.0000,0.004,-0.001,0.003,-0.002,0.121,0.153,0.127,37.27033898615,126.99072235851,31.9131,-3057721.4421,4059100.7572,3841344.7818,1.7592,1.2820,3.5191,2.2230,2.7565,2.1406,37.27664835970,127.03111078942,122.2941,0.00000000000,0.00000000000,0.0000,12296100,0.000,119.017838,23.290197,0.000000,0.000000,0,0,0,0*abab40a7",2743,-7.64,98.81
"$GNGGA,032438.20,3716.22033886,N,12659.44334165,E,1,28,0.6,31.9130,M,23.2902,M,,*49$GNGST,032438.20,1.18,1.76,1.28,176.5488,1.759,1.282,3.520*40$AGRICA,50,GPS,FINE,2373,12296200,0,0,18,31;GNSS,232,25,6,29,3,24,38,1,4,11,17,0,-699.4737,-3582.3047,-68.1341,0.0109,0.0078,0.0217,341.2655,1.5839,0.0000,0.003,0.001,0.001,-0.002,0.122,0.153,0.127,37.27033898100,126.99072236087,31.9131,-3057721.4425,4059100.7573,3841344.7813,1.7595,1.2822,3.5195,2.2237,2.7565,2.1409,37.27664835970,127.03111078942,122.2941,0.00000000000,0.00000000000,0.0000,12296200,0.000,35.716145,23.290197,0.000000,0.000000,0,0,0,0*16b47ba8$GNGGA,032438.30,3716.22033870,N,12659.44334169,E,1,28,0.6,31.9130,M,23.2902,M,,*4D$GNGST,032438.30,1.18,1.76,1.28,176.5143,1.760,1.282,3.520*49$AGRICA,50,GPS,FINE,2373,12296300,0,0,18,31;GNSS,232,25,6,29,3,24,38,1,4,11,17,0,-699.4740,-3582.3047,-68.1341,0.0109,0.0078,0.0217,341.1882,2.0621,0.0000,0.002,0.002,0.001,0.000,0.122,0.153,0.127,37.27033897834,126.99072236144,31.9130,-3057721.4426,4059100.7574,3841344.7810,1.7598,1.2821,3.5201,2.2244,2.7566,2.1412,37.27664835970,127.03111078942,122.2941,0.00000000000,0.00000000000,0.0000,12296300,0.000,25.838200,23.290197,0.000000,0.000000,0,0,0,0*abb9c232",2744,-7.9,98.79
"$GNGGA,032438.40,3716.22033857,N,12659.44334171,E,1,28,0.6,31.9131,M,23.2902,M,,*47$GNGST,032438.40,1.18,1.76,1.28,176.5415,1.759,1.282,3.520*42$AGRICA,50,GPS,FINE,2373,12296400,0,0,18,31;GNSS,232,25,6,29,3,24,38,1,4,11,17,0,-699.4742,-3582.3047,-68.1340,0.0109,0.0078,0.0217,341.2824,1.7809,0.0000,0.004,-0.004,-0.002,-0.001,0.122,0.153,0.127,37.27033897608,126.99072236192,31.9131,-3057721.4428,4059100.7576,3841344.7809,1.7593,1.2821,3.5203,2.2242,2.7568,2.1411,37.27664835970,127.03111078942,122.2941,0.00000000000,0.00000000000,0.0000,12296400,0.000,202.100952,23.290197,0.000000,0.000000,0,0,0,0*5a3e9094$GNGGA,032438.50,3716.22033813,N,12659.44334159,E,1,28,0.6,31.9131,M,23.2902,M,,*4C$GNGST,032438.50,1.18,1.76,1.28,176.5325,1.759,1.282,3.520*47$AGRICA,50,GPS,FINE,2373,12296500,0,0,18,30;GNSS,232,25,6,29,3,24,38,1,4,11,17,0,-699.4750,-3582.3047,-68.1340,0.0109,0.0078,0.0217,341.2118,2.0039,0.0000,0.005,-0.001,0.001,-0.005,0.122,0.153,0.127,37.27033896888,126.99072235978,31.9131,-3057721.4430,4059100.7581,3841344.7803,1.7594,1.2820,3.5204,2.2243,2.7568,2.1411,37.27664835970,127.03111078942,122.2941,0.00000000000,0.00000000000,0.0000,12296500,0.000,142.357285,23.290197,0.000000,0.000000,0,0,0,0*abc9746e",2750,-8.19,98.76
"$GNGGA,032438.60,3716.22033785,N,12659.44334161,E,1,28,0.6,31.9128,M,23.2902,M,,*4C$GNGST,032438.60,1.18,1.76,1.28,176.5404,1.759,1.282,3.521*41$AGRICA,50,GPS,FINE,2373,12296600,0,0,18,30;GNSS,232,25,6,29,3,24,38,1,4,11,17,0,-699.4756,-3582.3047,-68.1343,0.0109,0.0078,0.0217,341.1237,1.6995,0.0000,0.005,-0.002,0.002,-0.003,0.122,0.153,0.127,37.27033896417,126.99072236021,31.9128,-3057721.4430,4059100.7581,3841344.7797,1.7590,1.2820,3.5206,2.2245,2.7568,2.1410,37.27664835970,127.03111078942,122.2941,0.00000000000,0.00000000000,0.0000,12296600,0.000,136.720367,23.290197,0.000000,0.000000,0,0,0,0*a0144c79$GNGGA,032438.70,3716.22033748,N,12659.44334174,E,1,28,0.6,31.9126,M,23.2902,M,,*46$GNGST,032438.70,1.18,1.76,1.28,176.5360,1.759,1.282,3.520*44$AGRICA,50,GPS,FINE,2373,12296700,0,0,18,30;GNSS,232,25,6,29,3,24,38,1,4,11,17,0,-699.4763,-3582.3044,-68.1345,0.0109,0.0078,0.0217,341.3435,1.8886,0.0000,0.003,0.000,-0.001,-0.003,0.122,0.153,0.127,37.27033895801,126.99072236241,31.9126,-3057721.4433,4059100.7582,3841344.7790,1.7589,1.2820,3.5203,2.2245,2.7564,2.1411,37.27664835970,127.03111078942,122.2941,0.00000000000,0.00000000000,0.0000,12296700,0.000,250.511719,23.290197,0.000000,0.000000,0,0,0,0*5d942abc",2752,-8.55,98.74
"$GNGGA,032438.80,3716.22033723,N,12659.44334168,E,1,28,0.6,31.9125,M,23.2902,M,,*4A$GNGST,032438.80,1.18,1.76,1.28,176.5627,1.758,1.282,3.521*4D$AGRICA,50,GPS,FINE,2373,12296800,0,0,18,30;GNSS,232,25,6,29,3,24,38,1,4,11,17,0,-699.4767,-3582.3047,-68.1346,0.0109,0.0078,0.0217,341.2814,2.1345,0.0000,0.008,-0.006,-0.001,-0.004,0.122,0.153,0.127,37.27033895377,126.99072236134,31.9125,-3057721.4434,4059100.7585,3841344.7786,1.7584,1.2819,3.5207,2.2245,2.7565,2.1410,37.27664835970,127.03111078942,122.2941,0.00000000000,0.00000000000,0.0000,12296800,0.000,190.146286,23.290197,0.000000,0.000000,0,0,0,0*fe31afa7$GNGGA,032438.90,3716.22033664,N,12659.44334157,E,1,28,0.6,31.9123,M,23.2902,M,,*43$GNGST,032438.90,1.18,1.76,1.28,176.5514,1.758,1.282,3.521*4F$AGRICA,50,GPS,FINE,2373,12296900,0,0,18,30;GNSS,232,25,6,29,3,24,38,1,4,11,17,0,-699.4778,-3582.3047,-68.1348,0.0109,0.0078,0.0217,341.2248,2.2198,0.0000,0.008,-0.001,-0.001,-0.008,0.122,0.153,0.127,37.27033894393,126.99072235957,31.9123,-3057721.4436,4059100.7589,3841344.7776,1.7582,1.2818,3.5209,2.2247,2.7564,2.1410,37.27664835970,127.03111078942,122.2941,0.00000000000,0.00000000000,0.0000,12296900,0.000,221.964966,23.290197,0.000000,0.000000,0,0,0,0*297d0084",2759,-8.76,98.71
"$GNGGA,032439.00,3716.22033633,N,12659.44334148,E,1,28,0.6,31.9118,M,23.2902,M,,*4F",2765,-9.06,98.69
